_id,name,latitude,longitude,rating
56f4195d3d242c770be5cb76,cvs-pharmacy-baltimore-22,39.3600258976221,-76.7075092345476,2.5
56f419133d242c770be5cb57,the-pottery-cove-catonsville,39.2703422416398,-76.7346904054284,3.5
56f419133d242c770be5cb59,ellicott-mills-brewing-co-ellicott-city-2,39.2680511,-76.799469,3.0
56f419133d242c770be5cb5a,xitomate-columbia,39.2086495643557,-76.7992894491307,3.0
56f419133d242c770be5cb5b,the-liquor-store-catonsville,39.2753487,-76.7186966,3.5
56f419133d242c770be5cb5c,g-l-shacks-grill-catonsville,39.272373,-76.727973,3.0
56f419133d242c770be5cb5d,loafers-lounge-catonsville-2,39.286392,-76.763306,2.5
56f419133d242c770be5cb5e,the-diamondback-tavern-ellicott-city,39.2670403,-76.7986603,2.5
56f419133d242c770be5cb5f,ghost-lounge-hookah-bar-ellicott-city,39.2674102783203,-76.7989730834961,2.5
56f4191e3d242c770be5cb60,vino-301-wine-concierge-bowie,38.9861183166504,-76.7814712524414,4.5
56f4191e3d242c770be5cb61,barley-and-hops-grill-and-microbrewery-frederick,39.3820152282715,-77.399658203125,3.5
56f419283d242c770be5cb62,vino-301-wine-concierge-bowie,38.9861183166504,-76.7814712524414,4.5
56f419333d242c770be5cb63,vino-301-wine-concierge-bowie,38.9861183166504,-76.7814712524414,4.5
56f419333d242c770be5cb64,anitas-liquor-mount-airy,39.36577,-77.16596,4.0
56f419333d242c770be5cb65,the-greene-turtle-mount-airy-3,39.3636026233435,-77.1625761687756,2.5
56f4193d3d242c770be5cb66,vino-301-wine-concierge-bowie,38.9861183166504,-76.7814712524414,4.5
56f419483d242c770be5cb67,the-county-cork-wine-pub-eldersburg,39.3996857106686,-76.9349129498005,4.0
56f419483d242c770be5cb68,vino-301-wine-concierge-bowie,38.9861183166504,-76.7814712524414,4.5
56f419483d242c770be5cb69,e-w-becks-pub-sykesville,39.365421295166,-76.9689712524414,3.5
56f419523d242c770be5cb6a,vino-301-wine-concierge-bowie,38.9861183166504,-76.7814712524414,4.5
56f419523d242c770be5cb6b,the-woodstock-inn-woodstock,39.3306012,-76.8703261,3.5
56f419523d242c770be5cb6c,players-bar-and-grill-woodstock,39.3084255605936,-76.8892925977707,3.0
56f4195d3d242c770be5cb6d,trader-joes-pikesville,39.3878751159179,-76.7360016592403,4.5
56f4195d3d242c770be5cb6e,vino-301-wine-concierge-bowie,38.9861183166504,-76.7814712524414,4.5
56f4195d3d242c770be5cb6f,monaghans-pub-gwynn-oak,39.32253,-76.72484,4.0
56f4195d3d242c770be5cb70,gourmet-again-pikesville,39.3791046,-76.7229233,3.5
56f4195d3d242c770be5cb71,village-wines-and-liquors-arlington,39.3628235,-76.7114639,5.0
56f4195d3d242c770be5cb72,bullwinkles-saloon-baltimore,39.303919,-76.714271,5.0
56f4195d3d242c770be5cb73,city-view-bar-and-grill-woodlawn,39.3128929138184,-76.7413864135742,3.0
56f4195d3d242c770be5cb74,mall-spirits-baltimore,39.3574435,-76.7043745,3.0
56f4195d3d242c770be5cb75,pick-a-pretzel-baltimore,39.3573572,-76.7042636,1.5
56f417f03d242c770be5c9ba,nomad-grill-and-hookah-bar-herndon-2,38.9580570940168,-77.3731159711657,5.0
56f417f03d242c770be5c9bb,vapor-cafe-herndon,38.9693183898926,-77.3785629272461,4.5
56f417f03d242c770be5c9bc,great-harvest-bread-co-herndon,38.9708061218262,-77.3852844238281,4.5
56f417f03d242c770be5c9bd,aslin-beer-company-herndon,38.956371307373,-77.3749771118164,4.5
56f417f03d242c770be5c9be,santinis-new-york-style-deli-reston,38.9676902261316,-77.3558506740857,4.0
56f417f03d242c770be5c9bf,barcelona-reston-reston,38.9581743638621,-77.3610211910461,4.0
56f417f03d242c770be5c9c0,carpool-herndon,38.9670982,-77.3694229,3.5
56f417f03d242c770be5c9c1,jacksons-mighty-fine-food-and-lucky-lounge-reston,38.957717376025,-77.35871821487801,4.0
56f417f03d242c770be5c9c2,the-tasting-room-wine-bar-and-shops-reston,38.958370073875,-77.359285937248,3.5
56f417f03d242c770be5c9c3,mellow-mushroom-herndon-3,38.967591,-77.396372,3.5
56f417f03d242c770be5c9c4,glory-days-grill-herndon,38.9261069204774,-77.3755545785263,3.5
56f417f03d242c770be5c9c5,sephora-reston,38.9589119,-77.3595505,3.0
56f417f03d242c770be5c9c6,virginia-abc-store-herndon,38.9658318,-77.3760147,3.5
56f417f03d242c770be5c9c7,7-eleven-reston,38.93074,-77.345802,3.5
56f417f03d242c770be5c9c8,whole-foods-market-reston,38.9517568051815,-77.3490547388792,3.0
56f417f03d242c770be5c9c9,clydes-of-reston-reston-7,38.9585049387021,-77.3571746589603,3.0
56f417f03d242c770be5c9ca,cigar-town-reston-2,38.9576,-77.357796,3.0
56f417f03d242c770be5c9cb,giant-herndon,38.96278,-77.4003067,3.5
56f417f03d242c770be5c9cc,virginia-abc-reston,38.9390907,-77.3289795,3.0
56f417f03d242c770be5c9cd,kalypsos-sports-tavern-reston,38.9688479,-77.3407674,3.0
56f417f03d242c770be5c9ce,world-of-beer-reston-3,38.9578767016308,-77.3606221916304,3.0
56f417f03d242c770be5c9cf,glory-days-grill-reston,38.9799840003377,-77.3485119268298,3.5
56f417f03d242c770be5c9d0,safeway-reston,38.9397838042858,-77.3298501898166,2.0
56f417f03d242c770be5c9d1,safeway-reston-2,38.9366090297699,-77.3617570102215,2.0
56f417fb3d242c770be5c9d2,norms-beer-and-wine-vienna,38.9061584,-77.2572327,4.5
56f417fb3d242c770be5c9d3,vienna-vintner-vienna-2,38.9044506847858,-77.2615114599466,4.5
56f417fb3d242c770be5c9d4,bed-bath-and-beyond-vienna-2,38.9166360489933,-77.2343662608965,4.5
56f417fb3d242c770be5c9d5,the-pure-pasty-co-vienna,38.90135,-77.26694,4.5
56f417fb3d242c770be5c9d6,trader-joes-falls-church-2,38.9043526,-77.2036932,4.5
56f417fb3d242c770be5c9d7,wolf-trap-foundation-for-the-performing-arts-vienna,38.933,-77.26579,4.0
56f417fb3d242c770be5c9d8,clarity-vienna,38.90929,-77.25661,4.5
56f417fb3d242c770be5c9d9,lolli-and-pops-mclean-2,38.919616,-77.2259099,4.0
56f417fb3d242c770be5c9da,eddie-vs-prime-seafood-mclean-2,38.919979,-77.220434,4.0
56f417fb3d242c770be5c9db,the-capital-grille-mclean,38.91592,-77.22541,4.0
56f417fb3d242c770be5c9dc,ristorante-bonaroti-vienna,38.90929,-77.25661,4.0
56f417fb3d242c770be5c9dd,earls-kitchen-bar-mclean,38.9192043,-77.2194736,4.0
56f417fb3d242c770be5c9de,flemings-prime-steakhouse-and-wine-bar-tysons-corner,38.9205436706543,-77.22705078125,4.0
56f417fb3d242c770be5c9df,vino-301-wine-concierge-bowie,38.9861183166504,-76.7814712524414,4.5
56f417fb3d242c770be5c9e0,jammin-java-vienna,38.9043045,-77.2615433,4.0
56f417fb3d242c770be5c9e1,harris-teeter-mclean,38.9301606,-77.2276184,4.0
56f417fb3d242c770be5c9e2,the-old-brogue-great-falls,38.9972648620605,-77.2903594970703,4.0
56f417fb3d242c770be5c9e3,seasons-52-mclean-3,38.918952,-77.218848,4.0
56f417fb3d242c770be5c9e4,bey-lounge-vienna,38.9051245898008,-77.2665419429541,3.5
56f417fb3d242c770be5c9e5,american-girl-dc-mclean,38.9166017896342,-77.2238637270077,3.5
56f417fb3d242c770be5c9e6,founding-farmers-tysons-tysons-6,38.9227443818258,-77.2225484312134,3.5
56f417fb3d242c770be5c9e7,vienna-inn-vienna,38.9021683,-77.2648315,3.5
56f417fb3d242c770be5c9e8,clydes-of-tysons-corner-vienna-2,38.9203422,-77.2324875,3.0
56f417fb3d242c770be5c9e9,iris-lounge-mclean,38.931227765559,-77.236531412795,3.5
56f417fb3d242c770be5c9ea,chocolate-moonshine-co-mclean,38.951019,-77.22831,3.0
56f417fb3d242c770be5c9eb,maggianos-little-italy-mclean,38.9240646362305,-77.2255325317383,3.5
56f417fb3d242c770be5c9ec,gordon-biersch-brewery-restaurant-mclean,38.917996,-77.221747,3.0
56f417fb3d242c770be5c9ed,paladar-latin-kitchen-and-rum-bar-vienna,38.9120739,-77.222292,3.5
56f417fb3d242c770be5c9ee,o-malleys-pub-tysons-corner-mclean,38.9205436706543,-77.22705078125,3.5
56f417fb3d242c770be5c9ef,barrel-and-bushel-tysons-corner-2,38.918876,-77.2190193,3.0
56f417fb3d242c770be5c9f0,bjs-restaurant-and-brewhouse-vienna-2,38.913199,-77.222576,3.0
56f417fb3d242c770be5c9f1,whole-foods-market-falls-church-3,38.9034106582403,-77.2043140232563,3.0
56f417fb3d242c770be5c9f2,olive-garden-italian-restaurant-vienna-3,38.915562699845,-77.22723697878,3.0
56f417fb3d242c770be5c9f3,the-cheesecake-factory-mclean,38.923571,-77.2267,3.0
56f417fb3d242c770be5c9f4,klink-alcohol-delivery-washington,38.98139,-77.03206,4.0
56f417fb3d242c770be5c9f5,safeway-mclean-3,38.9229469,-77.2008286,3.0
56f417fb3d242c770be5c9f6,babalu-vienna-2,38.9287433,-77.245275,3.0
56f417fb3d242c770be5c9f7,wooden-bakery-vienna,38.9051245898008,-77.2665419429541,2.5
56f417fb3d242c770be5c9f8,levant-restaurant-and-lounge-tysons-corner,38.9155443012714,-77.2362175583839,2.0
56f418063d242c770be5c9f9,total-wine-and-more-mclean,38.931282043457,-77.1794815063477,4.0
56f418063d242c770be5c9fa,vino-301-wine-concierge-bowie,38.9861183166504,-76.7814712524414,4.5
56f418063d242c770be5c9fb,mac-market-washington,38.9267311,-77.1027679,4.5
56f418063d242c770be5c9fc,bethesda-market-bethesda,38.9487076,-77.1199875,3.5
56f418063d242c770be5c9fd,bethesda-co-op-cabin-john,38.975235643923,-77.161824610784,3.5
56f418063d242c770be5c9fe,talberts-ice-and-beverage-bethesda,38.964958190918,-77.1047515869141,3.0
56f418063d242c770be5c9ff,giant-food-mclean,38.93263,-77.1803,3.0
56f418063d242c770be5ca00,montgomery-county-liquor-and-wine-westwood-bethesda,38.9643768200807,-77.1077541928476,3.5
56f418063d242c770be5ca01,klink-alcohol-delivery-washington,38.98139,-77.03206,4.0
56f418063d242c770be5ca02,safeway-food-and-drug-mc-lean,38.9393119812012,-77.1756286621094,2.0
56f418113d242c770be5ca03,irving-wine-and-spirits-washington,38.9288788,-77.0376816,4.5
56f418113d242c770be5ca04,potomac-wines-and-spirits-washington,38.9049072265625,-77.0613098144531,4.5
56f418113d242c770be5ca05,cleveland-park-liquor-and-fine-wines-washington,38.9351119995117,-77.0577239990234,4.5
56f418113d242c770be5ca06,addy-bassins-macarthur-beverages-washington,38.9178009,-77.0963669,4.5
56f418113d242c770be5ca07,harvard-wine-and-liquor-store-washington,38.9269828796387,-77.0256729125977,4.5
56f418113d242c770be5ca08,cairo-wine-and-liquor-washington,38.91177,-77.03885,4.5
56f418113d242c770be5ca09,ace-beverage-washington,38.9335899,-77.0847702,4.0
56f418113d242c770be5ca0a,the-wine-specialist-washington,38.9049492,-77.044487,4.0
56f418113d242c770be5ca0b,virginia-market-washington,38.9167327880859,-77.041145324707,4.5
56f418113d242c770be5ca0c,lions-liquor-washington,38.9346008,-77.0245972,4.0
56f418113d242c770be5ca0d,trader-joes-washington,38.9039001,-77.053154,4.0
56f418113d242c770be5ca0e,van-ness-liquors-washington,38.943473815918,-77.062614440918,4.0
56f418113d242c770be5ca0f,dans-cafe-washington,38.9201126098633,-77.0414962768555,4.0
56f418113d242c770be5ca10,argonne-market-beer-and-wine-washington,38.9266788214445,-77.0381008833647,5.0
56f418113d242c770be5ca11,world-market-washington-2,38.9606474987276,-77.085657119751,4.0
56f418113d242c770be5ca12,sportsmans-wine-and-liquors-washington,38.9323387,-77.0385361,4.0
56f418113d242c770be5ca13,pauls-wine-and-spirits-washington,38.95753,-77.08359,4.0
56f418113d242c770be5ca14,magruders-of-dc-washington,38.9655456542969,-77.0764617919922,4.0
56f418113d242c770be5ca15,calvert-woodley-wines-and-spirits-washington,38.945182800293,-77.0636367797852,4.0
56f418113d242c770be5ca16,cc-liquor-washington,38.931469,-77.0325241,4.0
56f418113d242c770be5ca17,1-west-dupont-circle-wine-and-liquor-washington,38.9093505376333,-77.0454954312439,4.0
56f418113d242c770be5ca18,connecticut-avenue-wine-and-liquors-washington,38.910717,-77.0437393,4.0
56f418113d242c770be5ca19,pearsons-liquor-and-wine-annex-washington,38.9218597412109,-77.0728607177734,3.5
56f418113d242c770be5ca1a,imperial-liquor-washington,38.9033393859863,-77.0388336181641,4.5
56f418113d242c770be5ca1b,lances-beer-and-wine-bethesda-3,38.9807133,-77.0926753,4.0
56f418113d242c770be5ca1c,bloomingdale-wine-and-spirits-washington,38.9154052734375,-77.0124053955078,3.5
56f418113d242c770be5ca1d,tenley-liquor-washington,38.9486,-77.079829,4.0
56f418113d242c770be5ca1e,d-vines-washington,38.929248165327,-77.032518432231,3.5
56f418113d242c770be5ca1f,circle-wine-and-spirits-washington,38.963451385498,-77.0740966796875,3.5
56f418113d242c770be5ca20,trader-joes-bethesda,38.978319,-77.090442,3.5
56f418113d242c770be5ca21,chevy-chase-wine-and-spirits-washington,38.96449,-77.07583,3.5
56f418113d242c770be5ca22,sherrys-wine-and-spirits-washington,38.9243774414062,-77.0515213012695,3.5
56f418113d242c770be5ca23,barrel-house-liquors-washington,38.908577864636,-77.031741487974,3.5
56f418113d242c770be5ca24,montgomery-county-liquor-and-wine-chevy-chase-4,38.9618591,-77.0846615,3.5
56f418113d242c770be5ca25,towne-wine-and-liquors-washington-2,38.9073867797852,-77.063606262207,4.0
56f418113d242c770be5ca26,eleven-market-washington,38.9166603,-77.0273895,4.0
56f418113d242c770be5ca27,batch-13-washington,38.913445,-77.032402,3.0
56f418113d242c770be5ca28,montgomery-county-liquor-control-bethesda-5,38.9826303720474,-77.0970793068409,3.5
56f418113d242c770be5ca29,papas-liquor-washington,38.933525159955,-77.0726101845503,3.0
56f418113d242c770be5ca2a,university-wine-and-spirits-washington,38.9411917807259,-77.0007911086792,2.5
56f4181d3d242c770be5ca2b,village-pump-liquors-college-park,38.998054,-76.926592,4.5
56f4181d3d242c770be5ca2c,new-columbia-distillers-washington,38.9135675,-76.984055,4.5
56f4181d3d242c770be5ca2d,island-style-ice-cream-mount-rainier,38.9374504,-76.9603882,4.5
56f4181d3d242c770be5ca2e,copycat-co-washington-2,38.9004554748535,-76.9910278320312,4.5
56f4181d3d242c770be5ca2f,menomale-pizza-napoletana-washington,38.924859,-76.990149,4.5
56f4181d3d242c770be5ca30,the-atlas-room-washington,38.900084,-76.992084,4.5
56f4181d3d242c770be5ca31,shagga-coffee-and-restaurant-hyattsville,38.961327,-76.9398269,4.5
56f4181d3d242c770be5ca32,jimmy-valentines-lonely-hearts-club-washington,38.9038899,-76.9805499,4.0
56f4181d3d242c770be5ca33,dc-brau-brewing-company-washington-2,38.9296276088682,-76.9601726531982,4.0
56f4181d3d242c770be5ca34,nomad-washington-2,38.9003254822866,-76.9900556441803,4.5
56f4181d3d242c770be5ca35,the-queen-vic-washington,38.900417,-76.989861,4.0
56f4181d3d242c770be5ca36,righteous-cheese-washington,38.9087806,-76.9979685,4.0
56f4181d3d242c770be5ca37,costco-washington-2,38.9206619924,-76.950471361634,4.0
56f4181d3d242c770be5ca38,little-miss-whiskeys-golden-dollar-washington,38.90043,-76.99121,4.0
56f4181d3d242c770be5ca39,brooklands-finest-washington-2,38.929418,-76.99103,4.0
56f4181d3d242c770be5ca3a,one-eight-distilling-washington,38.913082,-76.988884,4.0
56f4181d3d242c770be5ca3b,vino-301-wine-concierge-bowie,38.9861183166504,-76.7814712524414,4.5
56f4181d3d242c770be5ca3c,franklins-hyattsville,38.952638,-76.940448,4.0
56f4181d3d242c770be5ca3d,atlas-arcade-washington,38.9004097,-76.9889832,4.0
56f4181d3d242c770be5ca3e,sallys-middle-name-washington,38.90044,-76.98746,4.0
56f4181d3d242c770be5ca3f,town-hall-liquors-college-park,38.9906158,-76.9338455,4.0
56f4181d3d242c770be5ca40,the-pug-washington,38.9004173278809,-76.9890365600586,4.0
56f4181d3d242c770be5ca41,crunkcakes-washington-3,38.906,-76.98606,5.0
56f4181d3d242c770be5ca42,ten-rens-tea-time-college-park-2,38.981613,-76.938075,3.5
56f4181d3d242c770be5ca43,brookland-pint-washington-10,38.9324374,-76.9953848,3.5
56f4181d3d242c770be5ca44,echostage-washington,38.9197794934014,-76.9727171656761,3.5
56f4181d3d242c770be5ca45,carolina-kitchen-bar-and-grill-hyattsville,38.9684146758234,-76.9519687773524,3.5
56f4181d3d242c770be5ca46,riverdale-plaza-liquors-riverdale,38.959012851119,-76.9190993160009,4.5
56f4181d3d242c770be5ca47,church-and-state-washington-2,38.9004097,-76.9889832,3.0
56f4181d3d242c770be5ca48,looneys-pub-college-park,38.9908447527978,-76.934390924871,3.0
56f4181d3d242c770be5ca49,yes-organic-market-washington-4,38.937431,-76.99041,3.5
56f4181d3d242c770be5ca4a,kangnam-bbq-sports-bar-and-grill-college-park,38.994812,-76.931832,3.5
56f4181d3d242c770be5ca4b,college-park-liquors-college-park,38.991188,-76.9335938,3.5
56f4181d3d242c770be5ca4c,h-street-country-club-washington,38.9000793278635,-76.9870307952593,3.0
56f4181d3d242c770be5ca4d,artjamz-brookland-studio-washington-2,38.9332469406531,-76.9950736637543,3.0
56f4181d3d242c770be5ca4e,terrapins-turf-college-park,38.9810299396293,-76.938403525187,3.0
56f4181d3d242c770be5ca4f,lees-liquor-store-hyattsville,38.9555168151855,-76.9650344848633,3.0
56f4181d3d242c770be5ca50,olive-garden-italian-restaurant-hyattsville-2,38.9671885,-76.961617,3.0
56f4181d3d242c770be5ca51,klink-alcohol-delivery-washington,38.98139,-77.03206,4.0
56f4181d3d242c770be5ca52,premium-distributors-of-washington-dc-washington,38.9171486,-76.9599304,1.0
56f418283d242c770be5ca53,woodmore-wine-and-spirits-glenarden,38.9225348085165,-76.8481381237507,4.5
56f418283d242c770be5ca54,vino-301-wine-concierge-bowie,38.9861183166504,-76.7814712524414,4.5
56f418283d242c770be5ca55,stonefish-grill-new-carrolton,38.9590271255147,-76.868054090192,3.0
56f418283d242c770be5ca56,sobe-restaurant-and-lounge-lanham,38.9890611,-76.8203651,3.0
56f418283d242c770be5ca57,half-note-lounge-bowie,38.9552383422852,-76.8117294311523,3.0
56f418283d242c770be5ca58,chevys-fresh-mex-greenbelt,38.9937324523926,-76.8789215087891,2.5
56f418283d242c770be5ca59,klink-alcohol-delivery-washington,38.98139,-77.03206,4.0
56f418283d242c770be5ca5a,tgi-fridays-greenbelt-3,38.997379,-76.894501,2.5
56f418283d242c770be5ca5b,buffalo-wild-wings-bowie,38.9553184509277,-76.8245162963867,2.0
56f418283d242c770be5ca5c,tgi-fridays-upper-marlboro-2,38.9043299853802,-76.8473166972399,2.0
56f418283d242c770be5ca5d,cozi-furniture-new-carrollton,38.958248,-76.87056,1.0
56f418323d242c770be5ca5e,vino-301-wine-concierge-bowie,38.9861183166504,-76.7814712524414,4.5
56f418323d242c770be5ca5f,rips-wine-and-spirit-shop-bowie,38.94277,-76.717039,4.0
56f418323d242c770be5ca60,rips-country-inn-bowie,38.9427681,-76.717041,3.5
56f418323d242c770be5ca61,olive-garden-italian-restaurant-bowie-2,38.9457499,-76.73468,2.5
56f418323d242c770be5ca62,chilis-bowie,38.94526,-76.71918,2.5
56f418323d242c770be5ca63,duclaw-brewing-co-bowie,38.9450187683105,-76.7338104248047,2.5
56f418323d242c770be5ca64,applebees-bowie,38.9457817,-76.7182922,2.5
56f4183d3d242c770be5ca65,starbucks-sterling-12,39.0344399,-77.3982,4.0
56f4183d3d242c770be5ca66,total-wine-and-more-sterling,39.0268478,-77.3985062,4.0
56f4183d3d242c770be5ca67,sahara-restaurant-and-lounge-sterling-3,39.0156459,-77.3779179,3.5
56f4183d3d242c770be5ca68,alcoholic-beverage-control-department-sterling,39.0201416,-77.3739929,3.0
56f418473d242c770be5ca69,vino-301-wine-concierge-bowie,38.9861183166504,-76.7814712524414,4.5
56f418473d242c770be5ca6a,quench-rockville,39.0915044,-77.2042947,3.5
56f418473d242c770be5ca6b,klink-alcohol-delivery-washington,38.98139,-77.03206,4.0
56f418523d242c770be5ca6c,penzeys-rockville,39.0727272,-77.1334457,4.5
56f418523d242c770be5ca6d,the-beer-and-wine-cellar-rockville-2,39.0632015268049,-77.1277582782837,5.0
56f418523d242c770be5ca6e,moms-organic-market-rockville,39.0531807,-77.1116409,4.5
56f418523d242c770be5ca6f,the-wine-harvest-potomac,39.0612149,-77.1577815,4.0
56f418523d242c770be5ca70,grosvenor-market-rockville,39.0280495,-77.1066284,4.5
56f418523d242c770be5ca71,belby-discount-beer-and-wine-rockville,39.0753100652538,-77.136812210083,4.5
56f418523d242c770be5ca72,the-bottle-shop-rockville-3,39.0619351375627,-77.1583882516547,4.5
56f418523d242c770be5ca73,gillys-craft-beer-and-fine-wine-rockville-3,39.0584693,-77.1189424,4.5
56f418523d242c770be5ca74,sams-hookah-bar-and-cafe-rockville,39.075674,-77.1367099,4.0
56f418523d242c770be5ca75,trader-joes-rockville,39.0571265803462,-77.1224753642558,4.0
56f418523d242c770be5ca76,georgetown-square-beer-and-wine-shop-bethesda,39.0259011318889,-77.1265498586273,4.5
56f418523d242c770be5ca77,lolli-and-pops-bethesda-2,39.0241210646684,-77.1459568664432,4.5
56f418523d242c770be5ca78,visarts-at-rockville-rockville,39.0860718601351,-77.1520722333063,4.0
56f418523d242c770be5ca79,vino-301-wine-concierge-bowie,38.9861183166504,-76.7814712524414,4.5
56f418523d242c770be5ca7a,dawsons-market-rockville,39.085991,-77.15242,4.0
56f418523d242c770be5ca7b,fm-karaoke-rockville,39.07415,-77.11436,4.0
56f418523d242c770be5ca7c,dietles-tavern-rockville,39.0389265676974,-77.1093552932575,4.0
56f418523d242c770be5ca7d,la-canela-rockville,39.0857582,-77.1517715,4.0
56f418523d242c770be5ca7e,montgomery-county-liquor-and-wine-pike-rockville-2,39.076244,-77.137466,4.0
56f418523d242c770be5ca7f,maruichi-grocery-rockville,39.0717659,-77.1331711,4.0
56f418523d242c770be5ca80,maui-wowi-dc-bethesda-8,39.0247016,-77.1492005,5.0
56f418523d242c770be5ca81,westfield-montgomery-bethesda,39.0241209,-77.1459575,3.5
56f418523d242c770be5ca82,tea-do-rockville,39.07597,-77.13711,4.0
56f418523d242c770be5ca83,seasons-52-north-bethesda,39.042779223861,-77.111325430239,3.5
56f418523d242c770be5ca84,world-market-rockville-2,39.0577617287636,-77.1206633001566,3.5
56f418523d242c770be5ca85,ipic-theaters-north-bethesda-2,39.0503844,-77.1177115,3.5
56f418523d242c770be5ca86,not-your-average-joes-bethesda,39.02516,-77.12681,3.5
56f418523d242c770be5ca87,del-friscos-grille-north-bethesda-2,39.051718,-77.117901,3.5
56f418523d242c770be5ca88,montgomery-county-liquor-and-wine-rockville-2,39.0980109,-77.193467,3.5
56f418523d242c770be5ca89,promenade-market-and-deli-bethesda,39.0146599,-77.1065674,4.0
56f418523d242c770be5ca8a,bertrams-inkwell-rockville,39.0414886474609,-77.1118011474609,4.5
56f418523d242c770be5ca8b,montgomery-county-liquor-and-wine-montrose-rockville,39.0546837,-77.1175995,3.5
56f418523d242c770be5ca8c,the-cheesecake-factory-bethesda,39.02284,-77.14688,3.0
56f418523d242c770be5ca8d,crave-bethesda-2,39.0228386,-77.1468811,3.0
56f418523d242c770be5ca8e,gordon-biersch-brewery-restaurant-rockville,39.0850404649973,-77.150761038065,3.0
56f418523d242c770be5ca8f,rockville-ale-house-rockville,39.0663789957762,-77.1279387921095,3.5
56f418523d242c770be5ca90,klink-alcohol-delivery-washington,38.98139,-77.03206,4.0
56f418523d242c770be5ca91,hooters-rockville,39.0636711,-77.1249695,2.5
56f418523d242c770be5ca92,buffalo-wild-wings-rockville,39.0858383450512,-77.1512124297264,3.0
56f418523d242c770be5ca93,rollins-deli-rockville,39.0586629509926,-77.1245685964823,1.5
56f4185d3d242c770be5ca94,the-kosher-pastry-oven-restaurant-silver-spring,39.0406409,-77.0304036,4.5
56f4185d3d242c770be5ca95,quench-silver-spring,39.0765443189091,-77.0003357798471,4.0
56f4185d3d242c770be5ca96,sniders-super-foods-silver-spring,39.0087396651506,-77.0420055091381,4.0
56f4185d3d242c770be5ca97,elbes-beer-and-wine-of-wheaton-silver-spring,39.0409508,-77.0524902,4.5
56f4185d3d242c770be5ca98,woodmoor-pastry-shop-silver-spring,39.0208796,-77.0120013,4.0
56f4185d3d242c770be5ca99,vino-301-wine-concierge-bowie,38.9861183166504,-76.7814712524414,4.5
56f4185d3d242c770be5ca9a,unplugged-restaurant-and-sports-bar-wheaton,39.0405464172363,-77.0508651733398,4.0
56f4185d3d242c770be5ca9b,lees-kitchen-silver-spring,39.0928110705504,-77.0455894189086,4.0
56f4185d3d242c770be5ca9c,costco-wholesale-silver-spring,39.0425065793456,-77.0508127296384,3.5
56f4185d3d242c770be5ca9d,stained-glass-pub-silver-spring,39.0616870014571,-77.0512178328613,3.5
56f4185d3d242c770be5ca9e,color-music-studio-silver-spring,39.0416658,-77.0506131,3.5
56f4185d3d242c770be5ca9f,great-shoals-winery-at-heyser-farms-silver-spring,39.0944693,-77.0022928,4.5
56f4185d3d242c770be5caa0,choice-wine-and-beer-silver-spring,39.0383299,-77.0529382,4.0
56f4185d3d242c770be5caa1,trader-joes-silver-spring,39.0315016,-77.0041677,4.0
56f4185d3d242c770be5caa2,woodmoor-supermarket-silver-spring,39.0209579,-77.0119553,4.0
56f4185d3d242c770be5caa3,the-woodside-deli-silver-spring,39.008296,-77.039695,3.5
56f4185d3d242c770be5caa4,cafe-2020-rockville-2,39.0463135181166,-77.0996062427366,3.5
56f4185d3d242c770be5caa5,the-4-corners-pub-silver-spring,39.0216941833496,-77.0128631591797,3.5
56f4185d3d242c770be5caa6,seminary-beer-wine-and-deli-silver-spring,39.009819,-77.0408325,4.0
56f4185d3d242c770be5caa7,wheaton-winery-silver-spring,39.0418128967285,-77.0490875244141,4.0
56f4185d3d242c770be5caa8,7-eleven-silver-spring,39.0852470397949,-77.0778579711914,4.0
56f4185d3d242c770be5caa9,mrs-ks-toll-house-silver-spring-2,39.005487,-77.021982,3.5
56f4185d3d242c770be5caaa,rodmans-discount-drug-stores-silver-spring,39.0559235,-77.0832901,3.5
56f4185d3d242c770be5caab,starbucks-silver-spring-11,39.0205112099648,-77.0123738050461,3.0
56f4185d3d242c770be5caac,montgomery-county-liquor-and-wine-kensington-2,39.0327025204897,-77.0739861577749,3.0
56f4185d3d242c770be5caad,kiss-and-ride-beer-and-wine-silver-spring,39.0384773164988,-77.0507575571537,2.5
56f4185d3d242c770be5caae,klink-alcohol-delivery-washington,38.98139,-77.03206,4.0
56f4185d3d242c770be5caaf,shoppers-food-and-pharmacy-silver-spring-2,39.0601592644319,-77.0471633700063,3.0
56f418683d242c770be5cab0,the-bamboo-eater-college-park,39.0169552713633,-76.9203713536263,4.5
56f418683d242c770be5cab1,old-line-fine-wine-spirits-and-bistro-beltsville,39.0341257,-76.908193,4.0
56f418683d242c770be5cab2,vino-301-wine-concierge-bowie,38.9861183166504,-76.7814712524414,4.5
56f418683d242c770be5cab3,viet-pho-and-grill-silver-spring,39.0202403068542,-76.9759326428175,4.0
56f418683d242c770be5cab4,rahma-international-store-silver-spring,39.084621,-76.95496,5.0
56f418683d242c770be5cab5,montgomery-county-liquor-control-silver-spring-4,39.0396186,-76.9904254,3.5
56f418683d242c770be5cab6,costco-beltsville,39.0324821472168,-76.9082641601562,3.5
56f418683d242c770be5cab7,the-jerk-pit-college-park,39.002736,-76.931274,3.0
56f418683d242c770be5cab8,buffalo-wild-wings-college-park,39.022102233974,-76.925261264685,3.0
56f418683d242c770be5cab9,giant-food-silver-spring-3,39.04193,-76.98973,2.5
56f418683d242c770be5caba,klink-alcohol-delivery-washington,38.98139,-77.03206,4.0
56f418723d242c770be5cabb,total-wine-and-more-laurel,39.0975764393806,-76.8062701821327,4.5
56f418723d242c770be5cabc,ritas-italian-ice-laurel,39.0980038000753,-76.8086907386212,4.5
56f418723d242c770be5cabd,vino-301-wine-concierge-bowie,38.9861183166504,-76.7814712524414,4.5
56f418723d242c770be5cabe,bjs-restaurant-and-brewhouse-laurel,39.0929509386567,-76.8563070354497,3.5
56f418723d242c770be5cabf,laurel-beer-wine-and-spirits-laurel-2,39.092359742469,-76.8598799771666,4.0
56f418723d242c770be5cac0,montpelier-liquors-laurel,39.1599808,-76.8912964,4.0
56f418723d242c770be5cac1,7-eleven-food-stores-laurel-3,39.0554733,-76.8378143,3.0
56f418723d242c770be5cac2,5-sisters-restaurant-laurel-3,39.0638127923012,-76.839227154851,2.0
56f418723d242c770be5cac3,applebees-laurel-2,39.076998939667,-76.868879293894,2.5
56f418723d242c770be5cac4,tgi-fridays-laurel-3,39.0902473,-76.8588127,2.0
56f418723d242c770be5cac5,dubols-home-care-laurel,39.088673,-76.855484,1.0
56f4187d3d242c770be5cac6,the-hideaway-odenton,39.0876884,-76.7117615,4.0
56f4187d3d242c770be5cac7,vino-301-wine-concierge-bowie,38.9861183166504,-76.7814712524414,4.5
56f4187d3d242c770be5cac8,hops-and-vines-odenton,39.066177,-76.717873,4.0
56f4187d3d242c770be5cac9,the-bank-shot-bar-and-grill-laurel,39.09076071632,-76.777066273148,3.5
56f418873d242c770be5caca,lewis-orchards-dickerson,39.1663818359375,-77.3891448974609,4.0
56f418873d242c770be5cacb,vino-301-wine-concierge-bowie,38.9861183166504,-76.7814712524414,4.5
56f418923d242c770be5cacc,downtown-crown-wine-and-beer-gaithersburg,39.1153259277344,-77.2067337036133,4.5
56f418923d242c770be5cacd,beers-and-cheers-germantown,39.1813736,-77.2661591,4.5
56f418923d242c770be5cace,wine-harvest-gaithersburg,39.122442172247,-77.23483399536,4.5
56f418923d242c770be5cacf,dogfish-head-alehouse-gaithersburg,39.141923812946,-77.217087596024,4.0
56f418923d242c770be5cad0,royal-bagel-bakery-germantown,39.1790527957104,-77.2661799626065,4.0
56f418923d242c770be5cad1,vino-301-wine-concierge-bowie,38.9861183166504,-76.7814712524414,4.5
56f418923d242c770be5cad2,whole-foods-market-gaithersburg-2,39.122788583825,-77.237592007847,3.5
56f418923d242c770be5cad3,finewine-gaithersburg-2,39.1184921,-77.2025757,4.0
56f418923d242c770be5cad4,the-shisha-lounge-germantown,39.1788536233297,-77.2710050241589,4.0
56f418923d242c770be5cad5,pho-chi-gaithersburg,39.1556167602539,-77.208854675293,3.5
56f418923d242c770be5cad6,quincys-bar-and-grille-gaithersburg,39.1417067,-77.2213544,3.5
56f418923d242c770be5cad7,paladar-latin-kitchen-and-rum-bar-gaithersburg-3,39.11406,-77.20562,3.5
56f418923d242c770be5cad8,rooks-corner-restaurant-gaithersburg,39.1492195,-77.213028,3.5
56f418923d242c770be5cad9,montgomery-county-wine-and-liquor-germantown-3,39.1993811,-77.2553216,4.0
56f418923d242c770be5cada,montgomery-county-department-of-liquor-control-gaithersburg-5,39.1183054754385,-77.2518347943687,3.5
56f418923d242c770be5cadb,old-town-pour-house-gaithersburg,39.1144333243704,-77.2053672367706,3.5
56f418923d242c770be5cadc,gaitherstowne-beer-and-wine-gaithersburg,39.1445961,-77.2026138,5.0
56f418923d242c770be5cadd,main-street-beer-and-wine-gaithersburg,39.1220321655273,-77.2384643554688,3.5
56f418923d242c770be5cade,costco-wholesale-gaithersburg,39.15614,-77.21389,2.5
56f418923d242c770be5cadf,giant-food-gaithersburg-4,39.114850113685996,-77.21771274712901,2.5
56f418923d242c770be5cae0,the-greene-turtle-germantown-2,39.183117,-77.261787,2.5
56f4189d3d242c770be5cae1,shady-grove-eye-and-vision-care-rockville,39.104672,-77.191391,4.5
56f4189d3d242c770be5cae2,elite-hookah-lounge-derwood,39.1449881749033,-77.1439790748689,4.5
56f4189d3d242c770be5cae3,twin-valley-distillers-rockville-2,39.1023414193,-77.1436704758576,4.0
56f4189d3d242c770be5cae4,professional-bartenders-and-servers-rockville,39.1163740307093,-77.1653730422258,5.0
56f4189d3d242c770be5cae5,grape-expectations-gaithersburg,39.188010417944,-77.185006913674,4.0
56f4189d3d242c770be5cae6,shishababas-house-of-hookah-gaithersburg-2,39.120671,-77.178072,4.5
56f4189d3d242c770be5cae7,vino-301-wine-concierge-bowie,38.9861183166504,-76.7814712524414,4.5
56f4189d3d242c770be5cae8,trader-joes-gaithersburg,39.1544004121281,-77.1990578995741,4.0
56f4189d3d242c770be5cae9,lilly-magillys-cupcakery-gaithersburg,39.117026,-77.19973,3.5
56f4189d3d242c770be5caea,midway-beer-and-wine-rockville,39.1186752,-77.170929,4.5
56f4189d3d242c770be5caeb,walnut-hill-wine-and-liquor-gaithersburg-3,39.1241639,-77.179879,3.5
56f4189d3d242c770be5caec,irock-karaoke-lounge-gaithersburg,39.1180825,-77.1834542,3.5
56f4189d3d242c770be5caed,new-york-mart-rockville-2,39.1029792679836,-77.1579061076045,3.5
56f4189d3d242c770be5caee,center-market-gaithersburg,39.142286,-77.1938463,4.0
56f4189d3d242c770be5caef,growlers-gaithersburg,39.142443,-77.193679,3.5
56f4189d3d242c770be5caf0,la-mexicana-gaithersburg,39.1209144,-77.1791306,3.0
56f4189d3d242c770be5caf1,union-jacks-gaithersburg,39.1161925125925,-77.1972899883986,3.0
56f4189d3d242c770be5caf2,kay-one-karaoke-montgomery-village,39.1692785918713,-77.1544940024614,1.0
56f4189d3d242c770be5caf3,king-farm-wine-shop-rockville,39.1139641,-77.1720428,3.0
56f418a73d242c770be5caf4,full-on-craft-eats-and-drinks-rockville-3,39.1097443139559,-77.0767538637936,4.0
56f418a73d242c770be5caf5,olney-winery-olney,39.1519822,-77.0621004,4.0
56f418a73d242c770be5caf6,roots-market-olney,39.1320114,-77.0712585,4.0
56f418a73d242c770be5caf7,vino-301-wine-concierge-bowie,38.9861183166504,-76.7814712524414,4.5
56f418a73d242c770be5caf8,sardis-fusion-olney,39.1528126583721,-77.0679812094863,4.0
56f418a73d242c770be5caf9,safeway-olney,39.150543,-77.064934,3.5
56f418a73d242c770be5cafa,olney-ale-house-olney,39.144088,-77.042724,3.0
56f418b23d242c770be5cafb,boarmans-old-fashioned-meat-market-highland-2,39.17916,-76.95809,4.5
56f418b23d242c770be5cafc,vino-301-wine-concierge-bowie,38.9861183166504,-76.7814712524414,4.5
56f418b23d242c770be5cafd,ranazul-fulton,39.1481289412332,-76.9059175163652,4.0
56f418b23d242c770be5cafe,tubbys-grill-laurel,39.1028175354004,-76.9092864990234,3.5
56f418b23d242c770be5caff,looneys-pub-south-fulton-2,39.1481971740723,-76.9071044921875,3.0
56f418b23d242c770be5cb00,montgomery-county-liquor-and-wine-burtonsville-burtonsville-2,39.1132731,-76.9349479,2.0
56f418b23d242c770be5cb01,buffalo-wings-and-beer-silver-spring,39.1096234,-76.9971983,2.5
56f418bd3d242c770be5cb02,maryland-homebrew-columbia,39.1853693780202,-76.8220960158691,4.5
56f418bd3d242c770be5cb03,more-than-java-cafe-laurel,39.1049842834473,-76.846809387207,4.5
56f418bd3d242c770be5cb04,jailbreak-brewing-company-laurel,39.1240240732974,-76.8232703581452,4.0
56f418bd3d242c770be5cb05,olive-on-main-laurel-2,39.1070472611118,-76.8506599481966,4.0
56f418bd3d242c770be5cb06,vino-301-wine-concierge-bowie,38.9861183166504,-76.7814712524414,4.5
56f418bd3d242c770be5cb07,pub-dog-columbia,39.190982,-76.8181664,4.0
56f418bd3d242c770be5cb08,kings-contrivance-liquor-and-smoke-shop-columbia,39.1699957205567,-76.8650883339422,4.0
56f418bd3d242c770be5cb09,frisco-taphouse-and-brewery-columbia,39.1857795715332,-76.8248901367188,3.5
56f418bd3d242c770be5cb0a,sonomas-bar-and-grille-columbia-2,39.186483,-76.8438852,3.5
56f418bd3d242c770be5cb0b,the-ale-house-columbia-columbia,39.1985168352648,-76.8198442088006,3.5
56f418bd3d242c770be5cb0c,rams-head-tavern-savage-4,39.135902,-76.825826,3.5
56f418bd3d242c770be5cb0d,grotto-pizza-columbia,39.176788,-76.846435,3.0
56f418bd3d242c770be5cb0e,decanter-fine-wines-columbia,39.1948814,-76.883461,4.0
56f418bd3d242c770be5cb0f,columbia-wine-and-spirits-columbia,39.1844711,-76.8710403,4.0
56f418bd3d242c770be5cb10,the-greene-turtle-columbia,39.1883399,-76.81892,3.0
56f418bd3d242c770be5cb11,game-sports-bar-and-grill-laurel,39.1470229625702,-76.8998973816633,3.0
56f418bd3d242c770be5cb12,the-corner-stable-columbia,39.1692724448648,-76.8652742646049,3.0
56f418bd3d242c770be5cb13,snowden-river-liquors-columbia,39.1764221191406,-76.8358459472656,3.5
56f418bd3d242c770be5cb14,nottinghams-tavern-columbia,39.19045,-76.81525,2.5
56f418bd3d242c770be5cb15,owen-brown-wine-and-spirits-columbia-2,39.1861543,-76.8414258,2.0
56f418bd3d242c770be5cb16,starting-gate-bar-and-lounge-laurel,39.1008682250977,-76.817008972168,1.0
56f418c83d242c770be5cb17,the-perfect-pour-elkridge,39.1877791,-76.7946508,4.5
56f418c83d242c770be5cb18,costco-hanover,39.1557312,-76.7308273,4.5
56f418c83d242c770be5cb19,vivo-italian-kitchen-and-wine-bar-hanover,39.1522960634841,-76.7439656787029,4.0
56f418c83d242c770be5cb1a,vino-301-wine-concierge-bowie,38.9861183166504,-76.7814712524414,4.5
56f418c83d242c770be5cb1b,costco-elkridge-2,39.1863708496094,-76.7936477661133,3.5
56f418c83d242c770be5cb1c,fort-meade-exchange-shoppette-fort-meade,39.1050715951491,-76.7388045787811,4.0
56f418c83d242c770be5cb1d,latelas-liquors-jessup,39.1362022696168,-76.7499292468994,4.5
56f418c83d242c770be5cb1e,the-wine-box-odenton,39.1074104,-76.7228165,5.0
56f418c83d242c770be5cb1f,tobacco-leaf-jessup,39.1694717,-76.7859268,4.0
56f418c83d242c770be5cb20,stained-glass-pub-elkridge,39.1861162,-76.7567717,3.5
56f418c83d242c770be5cb21,starbucks-hanover-7,39.1545200896257,-76.7424727365419,3.5
56f418c83d242c770be5cb22,houlihans-elkridge,39.1842439770699,-76.7951940000057,3.5
56f418c83d242c770be5cb23,duclaw-brewing-company-hanover,39.1602205386733,-76.7240142275619,3.5
56f418c83d242c770be5cb24,arundel-mills-hanover,39.1566872816154,-76.7248678207397,3.5
56f418c83d242c770be5cb25,the-cheesecake-factory-hanover-3,39.1574845977692,-76.7264531336176,3.0
56f418c83d242c770be5cb26,the-greene-turtle-hanover,39.154353202564,-76.719811507758,3.0
56f418c83d242c770be5cb27,arundel-mills-wine-and-spirits-hanover,39.1524429,-76.7254562,3.0
56f418c83d242c770be5cb28,olive-garden-italian-restaurant-hanover,39.154404,-76.729034,2.5
56f418c83d242c770be5cb29,mimis-cafe-elkridge,39.1837149113417,-76.7948667705059,2.5
56f418c83d242c770be5cb2a,buffalo-wild-wings-hanover,39.1602560112487,-76.7241278724749,2.5
56f418d33d242c770be5cb2b,vino-301-wine-concierge-bowie,38.9861183166504,-76.7814712524414,4.5
56f418d33d242c770be5cb2c,sugarloaf-mountain-vineyard-dickerson,39.2507434,-77.3797446,3.5
56f418dd3d242c770be5cb2d,jimmie-cone-damascus,39.28984,-77.20526,4.5
56f418dd3d242c770be5cb2e,vino-301-wine-concierge-bowie,38.9861183166504,-76.7814712524414,4.5
56f418dd3d242c770be5cb2f,maggis-pizza-and-deli-damascus,39.2887917,-77.2043304,4.0
56f418dd3d242c770be5cb30,the-music-cafe-damascus,39.2911474406719,-77.2050563246012,4.0
56f418dd3d242c770be5cb31,montgomery-county-liquor-and-wine-milestone-germantown,39.2023019,-77.2456886,3.5
56f418dd3d242c770be5cb32,bennigans-clarksburg,39.2381751537323,-77.2786125540733,3.5
56f418e83d242c770be5cb33,vino-301-wine-concierge-bowie,38.9861183166504,-76.7814712524414,4.5
56f418f23d242c770be5cb34,vino-301-wine-concierge-bowie,38.9861183166504,-76.7814712524414,4.5
56f418fd3d242c770be5cb35,vino-301-wine-concierge-bowie,38.9861183166504,-76.7814712524414,4.5
56f418fd3d242c770be5cb36,bistro-blanc-glenelg,39.2662294,-76.9871835,3.5
56f418fd3d242c770be5cb37,village-liquors-of-clarksville-clarksville,39.2129211,-76.9370499,4.5
56f419083d242c770be5cb38,great-harvest-bread-company-columbia,39.2280377277075,-76.8147456449394,4.5
56f419083d242c770be5cb39,iron-bridge-wine-company-columbia,39.23549,-76.8736,4.0
56f419083d242c770be5cb3a,victoria-gastro-pub-columbia,39.2100818580688,-76.8001058480696,4.0
56f419083d242c770be5cb3b,vino-301-wine-concierge-bowie,38.9861183166504,-76.7814712524414,4.5
56f419083d242c770be5cb3c,pine-orchard-liquors-ellicott-city,39.2796898,-76.8672409,4.0
56f419083d242c770be5cb3d,allview-liquors-ellicott-city,39.240592956543,-76.8401947021484,4.5
56f419083d242c770be5cb3e,centre-park-grill-columbia,39.226604,-76.815216,3.5
56f419083d242c770be5cb3f,seasons-52-columbia,39.2163291,-76.8602017,4.0
56f419083d242c770be5cb40,maggianos-little-italy-columbia-2,39.2156245,-76.8616784,4.0
56f419083d242c770be5cb41,whole-foods-market-columbia-10,39.213516,-76.856339,3.5
56f419083d242c770be5cb42,barnes-and-noble-booksellers-ellicott-city,39.253777,-76.817783,4.0
56f419083d242c770be5cb43,tinos-italian-bistro-columbia-2,39.2268105,-76.8180466,3.5
56f419083d242c770be5cb44,caffe-bene-ellicott-city,39.278556175357,-76.8579171521061,3.5
56f419083d242c770be5cb45,merriweather-post-pavilion-columbia,39.209285736084,-76.8623886108398,3.5
56f419083d242c770be5cb46,jasons-wine-and-spirits-ellicott,39.2770617,-76.8343443,3.5
56f419083d242c770be5cb47,wine-in-the-woods-columbia,39.20793,-76.85813,3.5
56f419083d242c770be5cb48,centennial-que-and-karaoke-club-ellicott-city,39.2778587341309,-76.8590774536133,3.5
56f419083d242c770be5cb49,columbia-palace-wine-and-spirits-columbia-2,39.2268105,-76.8180466,4.5
56f419083d242c770be5cb4a,7-eleven-ellicott-city-3,39.2711143493652,-76.8253402709961,3.5
56f419083d242c770be5cb4b,the-wine-seller-ellicott-city,39.2142677307129,-76.8023986816406,3.5
56f419083d242c770be5cb4c,the-cheesecake-factory-columbia,39.21656653958,-76.86322521299799,3.0
56f419083d242c770be5cb4d,union-jacks-columbia,39.2122612,-76.8586884,3.0
56f419083d242c770be5cb4e,quest-diagnostics-columbia-6,39.2149582,-76.8837738,1.0
56f419083d242c770be5cb4f,champps-restaurant-columbia,39.2162952945724,-76.8627870082855,2.5
56f419133d242c770be5cb50,sweet-cascades-ellicott-city,39.2672080993652,-76.7973556518555,4.5
56f419133d242c770be5cb51,cindys-spirits-elkridge,39.2083985,-76.7280303,4.5
56f419133d242c770be5cb52,aagh-lounge-catonsville,39.274944,-76.71788,4.5
56f419133d242c770be5cb53,pure-wine-cafe-ellicott-city,39.2676084,-76.7979798,4.0
56f419133d242c770be5cb54,vino-301-wine-concierge-bowie,38.9861183166504,-76.7814712524414,4.5
56f419133d242c770be5cb55,morsbergers-tavern-catonsville,39.2716217,-76.7318573,4.5
56f419133d242c770be5cb56,lynwood-square-wine-elkridge,39.2108085751534,-76.7772694677114,4.5
56f419133d242c770be5cb58,sugar-mommas-catonsville,39.2684135,-76.750206,3.5
