_id,name,latitude,longitude,rating
56f377a93d242c71d5db0660,the-hideaway-odenton,39.0876884,-76.7117615,4.0
56f377a93d242c71d5db0661,the-bank-shot-bar-and-grill-laurel,39.09076071632,-76.777066273148,3.5
56f377943d242c71d5db065a,the-jerk-pit-college-park,39.002736,-76.931274,3.0
56f377943d242c71d5db065b,showcase-theater-beltsville-2,39.038639,-76.901334,3.0
56f377943d242c71d5db065c,buffalo-wild-wings-college-park,39.022102233974,-76.925261264685,3.0
56f3779f3d242c71d5db065d,5-sisters-restaurant-laurel-3,39.0638127923012,-76.839227154851,2.0
56f3779f3d242c71d5db065e,applebees-laurel-2,39.076998939667,-76.868879293894,2.5
56f3779f3d242c71d5db065f,tgi-fridays-laurel-3,39.0902473,-76.8588127,2.0
56f377f23d242c71d5db0683,vivo-italian-kitchen-and-wine-bar-hanover,39.1522960634841,-76.7439656787029,4.0
56f377f23d242c71d5db0684,stained-glass-pub-elkridge,39.1861162,-76.7567717,3.5
56f377f23d242c71d5db0685,houlihans-elkridge,39.1842439770699,-76.7951940000057,3.5
56f377f23d242c71d5db0686,the-greene-turtle-hanover,39.154353202564,-76.719811507758,3.0
56f377f23d242c71d5db0687,maryland-live-casino-hanover,39.156364436649,-76.727692336164,2.5
56f377f23d242c71d5db0688,olive-garden-italian-restaurant-hanover,39.154404,-76.729034,2.5
56f377f23d242c71d5db0689,mimis-cafe-elkridge,39.1837149113417,-76.7948667705059,2.5
56f377f23d242c71d5db068a,buffalo-wild-wings-hanover,39.1602560112487,-76.7241278724749,2.5
56f377203d242c71d5db0619,nomad-grill-and-hookah-bar-herndon-2,38.9580570940168,-77.3731159711657,5.0
56f377203d242c71d5db061a,vapor-cafe-herndon,38.9693183898926,-77.3785629272461,4.5
56f377203d242c71d5db061b,barcelona-reston-reston,38.9581743638621,-77.3610211910461,4.0
56f377203d242c71d5db061c,carpool-herndon,38.9670982,-77.3694229,3.5
56f377203d242c71d5db061d,jacksons-mighty-fine-food-and-lucky-lounge-reston,38.957717376025,-77.35871821487801,4.0
56f377203d242c71d5db061e,the-tasting-room-wine-bar-and-shops-reston,38.958370073875,-77.359285937248,3.5
56f377203d242c71d5db061f,mellow-mushroom-herndon-3,38.967591,-77.396372,3.5
56f377203d242c71d5db0620,glory-days-grill-herndon,38.9261069204774,-77.3755545785263,3.5
56f377203d242c71d5db0621,clydes-of-reston-reston-7,38.9585049387021,-77.3571746589603,3.0
56f377203d242c71d5db0622,kalypsos-sports-tavern-reston,38.9688479,-77.3407674,3.0
56f377203d242c71d5db0623,world-of-beer-reston-3,38.9578767016308,-77.3606221916304,3.0
56f377203d242c71d5db0624,american-tap-room-reston,38.958298116083,-77.358505746503,3.0
56f3772b3d242c71d5db0625,wolf-trap-foundation-for-the-performing-arts-vienna,38.933,-77.26579,4.0
56f3772b3d242c71d5db0626,clarity-vienna,38.90929,-77.25661,4.5
56f3772b3d242c71d5db0627,eddie-vs-prime-seafood-mclean-2,38.919979,-77.220434,4.0
56f3772b3d242c71d5db0628,the-capital-grille-mclean,38.91592,-77.22541,4.0
56f3772b3d242c71d5db0629,ristorante-bonaroti-vienna,38.90929,-77.25661,4.0
56f3772b3d242c71d5db062a,earls-kitchen-bar-mclean,38.9192043,-77.2194736,4.0
56f3772b3d242c71d5db062b,flemings-prime-steakhouse-and-wine-bar-tysons-corner,38.9205436706543,-77.22705078125,4.0
56f3772b3d242c71d5db062c,jammin-java-vienna,38.9043045,-77.2615433,4.0
56f3772b3d242c71d5db062d,the-old-brogue-great-falls,38.9972648620605,-77.2903594970703,4.0
56f3772b3d242c71d5db062e,seasons-52-mclean-3,38.918952,-77.218848,4.0
56f3772b3d242c71d5db062f,bey-lounge-vienna,38.9051245898008,-77.2665419429541,3.5
56f3772b3d242c71d5db0630,arts-tavern-falls-church-2,38.9019699,-77.2055206,3.5
56f3772b3d242c71d5db0631,founding-farmers-tysons-tysons-6,38.9227443818258,-77.2225484312134,3.5
56f3772b3d242c71d5db0632,vienna-inn-vienna,38.9021683,-77.2648315,3.5
56f3772b3d242c71d5db0633,clydes-of-tysons-corner-vienna-2,38.9203422,-77.2324875,3.0
56f3772b3d242c71d5db0634,iris-lounge-mclean,38.931227765559,-77.236531412795,3.5
56f3772b3d242c71d5db0635,maggianos-little-italy-mclean,38.9240646362305,-77.2255325317383,3.5
56f3772b3d242c71d5db0636,paladar-latin-kitchen-and-rum-bar-vienna,38.9120739,-77.222292,3.5
56f3772b3d242c71d5db0637,o-malleys-pub-tysons-corner-mclean,38.9205436706543,-77.22705078125,3.5
56f3772b3d242c71d5db0638,barrel-and-bushel-tysons-corner-2,38.918876,-77.2190193,3.0
56f3772b3d242c71d5db0639,olive-garden-italian-restaurant-vienna-3,38.915562699845,-77.22723697878,3.0
56f3772b3d242c71d5db063a,babalu-vienna-2,38.9287433,-77.245275,3.0
56f3772b3d242c71d5db063b,levant-restaurant-and-lounge-tysons-corner,38.9155443012714,-77.2362175583839,2.0
56f377363d242c71d5db063c,staybridge-suites-mclean,38.9347,-77.18132,4.0
56f377403d242c71d5db063d,the-sovereign-washington-3,38.90554,-77.063179,4.0
56f377403d242c71d5db063e,landmark-theatres-atlantic-plumbing-cinema-washington,38.9179353545148,-77.0232343669398,3.5
56f377403d242c71d5db063f,pizzeria-paradiso-washington-2,38.9049770854945,-77.0656167460327,3.5
56f3774b3d242c71d5db0640,jos-a-magnus-and-co-washington,38.914548127161,-76.9816012969641,4.5
56f377553d242c71d5db0641,stonefish-grill-new-carrolton,38.9590271255147,-76.868054090192,3.0
56f377553d242c71d5db0642,sobe-restaurant-and-lounge-lanham,38.9890611,-76.8203651,3.0
56f377553d242c71d5db0643,half-note-lounge-bowie,38.9552383422852,-76.8117294311523,3.0
56f377553d242c71d5db0644,chevys-fresh-mex-greenbelt,38.9937324523926,-76.8789215087891,2.5
56f377553d242c71d5db0645,tgi-fridays-greenbelt-3,38.997379,-76.894501,2.5
56f377553d242c71d5db0646,buffalo-wild-wings-bowie,38.9553184509277,-76.8245162963867,2.0
56f377553d242c71d5db0647,tgi-fridays-upper-marlboro-2,38.9043299853802,-76.8473166972399,2.0
56f377603d242c71d5db0648,rips-country-inn-bowie,38.9427681,-76.717041,3.5
56f377603d242c71d5db0649,olive-garden-italian-restaurant-bowie-2,38.9457499,-76.73468,2.5
56f377603d242c71d5db064a,chilis-bowie,38.94526,-76.71918,2.5
56f377603d242c71d5db064b,duclaw-brewing-co-bowie,38.9450187683105,-76.7338104248047,2.5
56f377603d242c71d5db064c,applebees-bowie,38.9457817,-76.7182922,2.5
56f3776a3d242c71d5db064d,sahara-restaurant-and-lounge-sterling-3,39.0156459,-77.3779179,3.5
56f377743d242c71d5db064e,quench-rockville,39.0915044,-77.2042947,3.5
56f3777f3d242c71d5db064f,ipic-theaters-north-bethesda-2,39.0503844,-77.1177115,3.5
56f3778a3d242c71d5db0650,quench-silver-spring,39.0765443189091,-77.0003357798471,4.0
56f3778a3d242c71d5db0651,unplugged-restaurant-and-sports-bar-wheaton,39.0405464172363,-77.0508651733398,4.0
56f3778a3d242c71d5db0652,stained-glass-pub-silver-spring,39.0616870014571,-77.0512178328613,3.5
56f3778a3d242c71d5db0653,color-music-studio-silver-spring,39.0416658,-77.0506131,3.5
56f3778a3d242c71d5db0654,azucar-restaurant-bar-and-grill-silver-spring,39.0927706113643,-77.0461527311136,3.5
56f3778a3d242c71d5db0655,cafe-2020-rockville-2,39.0463135181166,-77.0996062427366,3.5
56f3778a3d242c71d5db0656,the-4-corners-pub-silver-spring,39.0216941833496,-77.0128631591797,3.5
56f3778a3d242c71d5db0657,rens-ramen-wheaton-2,39.0415936,-77.0479727,3.5
56f3778a3d242c71d5db0658,mrs-ks-toll-house-silver-spring-2,39.005487,-77.021982,3.5
56f377943d242c71d5db0659,old-line-fine-wine-spirits-and-bistro-beltsville,39.0341257,-76.908193,4.0
56f377be3d242c71d5db0662,dogfish-head-alehouse-gaithersburg,39.141923812946,-77.217087596024,4.0
56f377be3d242c71d5db0663,the-shisha-lounge-germantown,39.1788536233297,-77.2710050241589,4.0
56f377be3d242c71d5db0664,pho-chi-gaithersburg,39.1556167602539,-77.208854675293,3.5
56f377be3d242c71d5db0665,quincys-bar-and-grille-gaithersburg,39.1417067,-77.2213544,3.5
56f377be3d242c71d5db0666,paladar-latin-kitchen-and-rum-bar-gaithersburg-3,39.11406,-77.20562,3.5
56f377be3d242c71d5db0667,rooks-corner-restaurant-gaithersburg,39.1492195,-77.213028,3.5
56f377be3d242c71d5db0668,old-town-pour-house-gaithersburg,39.1144333243704,-77.2053672367706,3.5
56f377be3d242c71d5db0669,the-greene-turtle-germantown-2,39.183117,-77.261787,2.5
56f377c93d242c71d5db066a,elite-hookah-lounge-derwood,39.1449881749033,-77.1439790748689,4.5
56f377c93d242c71d5db066b,shishababas-house-of-hookah-gaithersburg-2,39.120671,-77.178072,4.5
56f377c93d242c71d5db066c,irock-karaoke-lounge-gaithersburg,39.1180825,-77.1834542,3.5
56f377c93d242c71d5db066d,la-mexicana-gaithersburg,39.1209144,-77.1791306,3.0
56f377c93d242c71d5db066e,union-jacks-gaithersburg,39.1161925125925,-77.1972899883986,2.5
56f377c93d242c71d5db066f,kay-one-karaoke-montgomery-village,39.1692785918713,-77.1544940024614,1.0
56f377d33d242c71d5db0670,full-on-craft-eats-and-drinks-rockville-3,39.1097443139559,-77.0767538637936,4.0
56f377d33d242c71d5db0671,olney-winery-olney,39.1519822,-77.0621004,4.0
56f377d33d242c71d5db0672,sardis-fusion-olney,39.1528126583721,-77.0679812094863,4.0
56f377d33d242c71d5db0673,olney-ale-house-olney,39.144088,-77.042724,3.0
56f377dd3d242c71d5db0674,ranazul-fulton,39.1481289412332,-76.9059175163652,4.0
56f377dd3d242c71d5db0675,looneys-pub-south-fulton-2,39.1481971740723,-76.9071044921875,3.0
56f377dd3d242c71d5db0676,buffalo-wings-and-beer-silver-spring,39.1096234,-76.9971983,2.5
56f377e83d242c71d5db0677,olive-on-main-laurel-2,39.1070472611118,-76.8506599481966,4.0
56f377e83d242c71d5db0678,pub-dog-columbia,39.190982,-76.8181664,4.0
56f377e83d242c71d5db0679,frisco-taphouse-and-brewery-columbia,39.1857795715332,-76.8248901367188,3.5
56f377e83d242c71d5db067a,sonomas-bar-and-grille-columbia-2,39.186483,-76.8438852,3.5
56f377e83d242c71d5db067b,the-ale-house-columbia-columbia,39.1985168352648,-76.8198442088006,3.5
56f377e83d242c71d5db067c,rams-head-tavern-savage-4,39.135902,-76.825826,3.5
56f377e83d242c71d5db067d,grotto-pizza-columbia,39.176788,-76.846435,3.0
56f377e83d242c71d5db067e,the-greene-turtle-columbia,39.1883399,-76.81892,3.0
56f377e83d242c71d5db067f,game-sports-bar-and-grill-laurel,39.1470229625702,-76.8998973816633,3.0
56f377e83d242c71d5db0680,the-corner-stable-columbia,39.1692724448648,-76.8652742646049,3.0
56f377e83d242c71d5db0681,nottinghams-tavern-columbia,39.19045,-76.81525,2.5
56f377e83d242c71d5db0682,starting-gate-bar-and-lounge-laurel,39.1008682250977,-76.817008972168,1.0
56f378083d242c71d5db068b,bennigans-clarksburg,39.2381751537323,-77.2786125540733,3.5
56f378283d242c71d5db068c,bistro-blanc-glenelg,39.2662294,-76.9871835,3.5
56f378283d242c71d5db068d,coho-grill-columbia,39.2256265,-76.9000407,3.5
56f378333d242c71d5db068e,iron-bridge-wine-company-columbia,39.23549,-76.8736,4.0
56f378333d242c71d5db068f,victoria-gastro-pub-columbia,39.2100818580688,-76.8001058480696,4.0
56f378333d242c71d5db0690,centre-park-grill-columbia,39.226604,-76.815216,3.5
56f378333d242c71d5db0691,seasons-52-columbia,39.2163291,-76.8602017,4.0
56f378333d242c71d5db0692,maggianos-little-italy-columbia-2,39.2156245,-76.8616784,4.0
56f378333d242c71d5db0693,honey-pig-gooldaegee-korean-bbq-ellicott-city,39.277651,-76.859453,3.5
56f378333d242c71d5db0694,tinos-italian-bistro-columbia-2,39.2268105,-76.8180466,3.5
56f378333d242c71d5db0695,merriweather-post-pavilion-columbia,39.209285736084,-76.8623886108398,3.5
56f378333d242c71d5db0696,centennial-que-and-karaoke-club-ellicott-city,39.2778587341309,-76.8590774536133,3.5
56f378333d242c71d5db0697,la-palapa-grill-and-cantina-ellicott-city,39.267814226209,-76.800026186717,3.0
56f378333d242c71d5db0698,union-jacks-columbia,39.2122612,-76.8586884,3.0
56f378333d242c71d5db0699,champps-restaurant-columbia,39.2162952945724,-76.8627870082855,2.5
56f3783d3d242c71d5db069a,aagh-lounge-catonsville,39.274944,-76.71788,4.5
56f3783d3d242c71d5db069b,pure-wine-cafe-ellicott-city,39.2676084,-76.7979798,4.0
56f3783d3d242c71d5db069c,morsbergers-tavern-catonsville,39.2716217,-76.7318573,4.5
56f3783d3d242c71d5db069d,phoenix-emporium-ellicott-city,39.267505645752,-76.7954025268555,3.5
56f3783d3d242c71d5db069e,the-rumor-mill-ellicott-city,39.267193,-76.79586,3.5
56f3783d3d242c71d5db069f,g-l-shacks-grill-catonsville,39.272373,-76.727973,3.0
56f3783d3d242c71d5db06a0,loafers-lounge-catonsville-2,39.286392,-76.763306,2.5
56f3783d3d242c71d5db06a1,the-diamondback-tavern-ellicott-city,39.2670403,-76.7986603,2.5
56f3783d3d242c71d5db06a2,ghost-lounge-hookah-bar-ellicott-city,39.2674102783203,-76.7989730834961,2.5
56f3785c3d242c71d5db06a3,the-greene-turtle-mount-airy-3,39.3636026233435,-77.1625761687756,2.5
56f378713d242c71d5db06a4,the-county-cork-wine-pub-eldersburg,39.3996857106686,-76.9349129498005,4.0
56f378713d242c71d5db06a5,e-w-becks-pub-sykesville,39.365421295166,-76.9689712524414,3.5
56f3787c3d242c71d5db06a6,the-woodstock-inn-woodstock,39.3306012,-76.8703261,3.5
56f3787c3d242c71d5db06a7,players-bar-and-grill-woodstock,39.3084255605936,-76.8892925977707,3.0
56f378873d242c71d5db06a8,monaghans-pub-gwynn-oak,39.32253,-76.72484,4.0
56f378873d242c71d5db06a9,bullwinkles-saloon-baltimore,39.303919,-76.714271,5.0
56f378873d242c71d5db06aa,city-view-bar-and-grill-woodlawn,39.3128929138184,-76.7413864135742,3.0
